,City,Latitude,Longitude,Temperature (F),Max Temperature (F),Humidity (%),Cloudiness (%),Wind Speed (MPH)
0,longyearbyen,78.22,15.64,-11.6,-11.6,57,0,2.08
1,ushuaia,-54.8,-68.3,40.06,40.06,82,100,5.44
2,esperance,-33.87,121.9,66.4,66.4,80,86,3.38
3,shache,38.42,77.24,20.82,20.82,72,65,2.17
4,sovetskiy,61.36,63.58,-6.72,-6.72,98,44,3.47
5,khatanga,71.97,102.5,-24.14,-24.14,91,57,2.89
6,tawang,27.58,91.87,15.01,15.01,35,0,4.09
7,salisbury,51.07,-1.8,45.18,46.99,94,97,8.52
8,ust-kan,50.93,84.76,18.55,18.55,95,84,6.42
9,maneromango,-7.2,38.78,72.72,72.72,95,100,0.47
10,atuona,-9.8,-139.03,80.78,80.78,78,62,15.21
11,tarko-sale,64.92,77.78,-1.17,-1.17,96,91,8.5
12,namibe,-15.2,12.15,74.95,74.95,73,7,11.05
13,hasaki,35.73,140.83,37.29,39.0,90,100,14.88
14,hermanus,-34.42,19.23,64.24,66.0,76,46,11.01
15,vaini,-21.2,-175.2,78.55,78.55,87,25,19.64
16,mar del plata,-38.0,-57.56,65.35,65.35,68,0,11.97
17,sohag,26.56,31.69,43.25,43.25,55,0,6.89
18,punta arenas,-53.15,-70.92,51.01,51.01,62,13,23.0
19,ribeira grande,38.52,-28.7,54.72,54.72,73,100,5.19
20,ranfurly,-45.13,170.1,70.2,72.0,61,52,1.01
21,klaksvik,62.23,-6.59,45.84,45.84,86,100,18.7
22,kapaa,22.08,-159.32,77.0,77.0,70,74,1.01
23,port alfred,-33.59,26.89,66.0,66.0,97,0,5.01
24,otane,-39.88,176.63,81.0,81.0,54,0,1.01
25,nioro,13.35,-15.75,78.01,78.01,15,100,3.31
26,cherskiy,68.75,161.3,-20.88,-20.88,95,100,2.28
27,port elizabeth,-33.92,25.57,68.0,68.0,94,75,16.11
28,fortuna,40.6,-124.16,56.93,59.0,93,100,5.75
29,avarua,-21.21,-159.78,80.76,80.76,83,99,13.44
30,leningradskiy,69.38,178.42,-12.41,-12.41,95,97,4.21
31,cockburn town,21.46,-71.14,76.05,76.05,71,0,9.28
32,vana-vigala,58.78,24.25,34.21,36.0,93,54,7.18
33,wau,7.7,28.0,70.65,70.65,17,48,8.72
34,qaanaaq,77.48,-69.36,-12.51,-12.51,44,0,5.12
35,new norfolk,-42.78,147.06,65.55,72.0,61,88,5.99
36,hobart,-42.88,147.33,65.82,72.0,64,86,8.16
37,iqaluit,63.75,-68.51,-27.0,-27.0,60,38,8.99
38,bodaybo,57.85,114.19,5.94,5.94,96,100,2.77
39,barrow,71.29,-156.79,-31.0,-31.0,97,1,9.17
40,karratha,-20.74,116.85,85.59,85.59,74,0,2.82
41,petatlan,17.52,-101.27,81.27,81.27,65,87,7.36
42,khorixas,-20.37,14.97,70.95,70.95,39,5,2.08
43,castro,-24.79,-50.01,65.7,65.7,72,9,3.38
44,masindi,1.67,31.71,71.2,71.2,58,98,1.92
45,souillac,-20.52,57.52,75.69,77.0,83,75,11.41
46,luanda,-8.84,13.23,81.07,81.07,78,35,11.52
47,bredasdorp,-34.53,20.04,66.13,66.2,68,31,21.92
48,cape town,-33.93,18.42,63.7,66.99,88,40,16.11
49,hobyo,5.35,48.53,77.81,77.81,81,99,15.86
50,bluff,-46.6,168.33,69.01,69.01,67,46,3.0
51,yerbogachen,61.28,108.01,26.22,26.22,89,100,16.73
52,touros,-5.2,-35.46,82.71,82.71,82,93,17.52
53,dikson,73.51,80.55,-7.82,-7.82,96,100,7.07
54,lloydminster,53.28,-110.0,31.17,31.17,97,64,6.42
55,saint-augustin,51.23,-58.65,15.12,15.12,78,36,11.12
56,tananger,58.93,5.6,42.82,44.01,94,100,10.0
57,rio grande,-32.03,-52.1,81.0,81.0,67,71,1.01
58,tahta,26.77,31.5,42.46,42.46,64,0,5.88
59,opuwo,-18.06,13.84,70.47,70.47,38,69,4.94
60,puerto ayora,-0.74,-90.35,77.0,77.0,44,61,3.0
61,makakilo city,21.35,-158.09,78.37,80.01,57,6,5.01
62,mahibadhoo,3.78,72.97,80.82,80.82,79,100,13.89
63,rikitea,-23.12,-134.97,79.25,79.25,77,18,14.03
64,san patricio,19.22,-104.7,78.51,78.51,67,74,8.21
65,imeni poliny osipenko,52.42,136.49,-19.52,-19.52,95,0,5.46
66,cravo norte,6.3,-70.2,85.69,85.69,43,92,6.67
67,pevek,69.7,170.31,-13.14,-13.14,96,100,1.79
68,faanui,-16.48,-151.75,82.45,82.45,76,22,11.21
69,tshane,-24.02,21.87,74.73,74.73,48,6,12.62
70,okha,53.57,142.95,-12.23,-12.23,84,0,18.37
71,cabo san lucas,22.89,-109.91,71.76,73.0,79,38,4.0
72,bambous virieux,-20.34,57.76,75.63,77.0,83,75,11.41
73,kodiak,57.79,-152.41,19.18,19.18,83,72,23.6
74,jamestown,42.1,-79.24,34.7,36.0,93,100,4.0
75,albany,42.6,-73.97,36.91,39.99,89,100,3.69
76,carnarvon,-24.87,113.63,78.37,78.37,63,15,20.2
77,hithadhoo,-0.6,73.08,82.65,82.65,79,100,14.88
78,port lincoln,-34.73,135.87,68.59,68.59,67,41,6.06
79,ossora,59.24,163.07,31.39,31.39,92,100,33.33
80,yellowknife,62.46,-114.35,10.0,10.0,84,100,1.57
81,tailai,46.38,123.4,-0.08,-0.08,78,0,9.15
82,huangpu,25.44,113.17,39.83,39.83,95,100,6.69
83,yulara,-25.24,130.99,87.1,87.1,14,0,17.07
84,jaru,-10.44,-62.47,76.37,76.37,91,99,1.77
85,lorengau,-2.02,147.27,83.16,83.16,73,12,4.23
86,lompoc,34.64,-120.46,67.17,75.0,82,1,8.05
87,cotui,19.05,-70.15,68.81,79.0,88,47,4.41
88,srivardhan,18.03,73.02,73.31,73.31,57,70,3.56
89,thompson,55.74,-97.86,17.17,17.17,96,100,3.69
90,butaritari,3.07,172.79,85.03,85.03,72,12,10.56
91,shitanjing,39.23,106.34,22.44,22.44,88,16,4.41
92,carlsbad,33.16,-117.35,64.27,73.99,49,1,8.05
93,kavieng,-2.57,150.8,84.36,84.36,71,95,8.97
94,inirida,3.87,-67.92,78.75,78.75,81,100,2.3
95,chuy,-33.7,-53.46,67.91,67.91,76,24,7.36
96,ambilobe,-13.2,49.05,74.59,74.59,95,99,4.7
97,tuktoyaktuk,69.45,-133.04,-16.22,-16.22,96,100,21.56
98,busselton,-33.65,115.33,68.09,72.0,52,19,8.79
99,blantyre,-15.79,35.01,64.94,64.94,95,17,3.27
100,arraial do cabo,-22.97,-42.03,75.79,75.79,83,0,9.4
101,raudeberg,61.99,5.14,44.74,46.0,90,100,39.1
102,yangambi,0.81,24.43,71.26,71.26,40,42,1.36
103,barabinsk,55.36,78.36,2.57,2.57,94,99,11.97
104,mahebourg,-20.41,57.7,75.7,77.0,83,75,11.41
105,bousso,10.48,16.71,63.57,63.57,14,2,7.78
106,terbuny,52.14,38.28,30.11,30.11,86,81,16.84
107,abrau-dyurso,44.69,37.59,44.01,44.01,70,100,15.99
108,chokurdakh,70.63,147.92,-26.25,-26.25,82,85,4.25
109,saskylakh,71.92,114.08,-20.0,-20.0,92,100,17.58
110,shihezi,44.3,86.03,4.1,4.1,96,68,2.39
111,pitimbu,-7.47,-34.81,79.47,79.47,85,71,4.7
112,tasiilaq,65.61,-37.64,26.6,26.6,73,100,12.75
113,blairmore,49.6,-114.44,25.68,25.68,88,60,6.8
114,dragomiresti-vale,44.48,25.93,34.0,34.0,83,100,0.96
115,tiksi,71.69,128.87,-26.52,-26.52,67,0,5.5
116,phan thiet,10.93,108.1,69.89,69.89,88,69,3.38
117,hailar,49.2,119.7,-4.45,-4.45,92,43,7.29
118,akniste,56.16,25.75,31.53,31.53,96,12,6.2
119,adrar,20.5,-10.07,76.23,76.23,21,83,11.05
120,gazli,40.13,63.45,26.87,26.87,78,24,2.3
121,nikolskoye,59.7,30.79,27.64,30.0,81,0,5.88
122,henties bay,-22.12,14.28,64.0,64.0,95,0,1.01
123,hilo,19.73,-155.09,70.93,78.01,83,53,5.01
124,mataura,-46.19,168.86,69.01,69.01,67,73,3.0
125,airai,-8.93,125.41,76.33,76.33,76,100,1.03
126,torbay,47.67,-52.73,17.96,19.0,79,0,3.0
127,chifeng,42.27,118.96,12.7,12.7,71,0,3.2
128,vitim,59.45,112.56,17.96,17.96,92,99,7.61
129,portland,45.52,-122.68,55.17,59.0,74,74,1.72
130,necochea,-38.55,-58.74,61.57,68.0,57,2,5.01
131,preobrazheniye,42.9,133.91,16.38,16.38,39,4,4.85
132,iisaku,59.1,27.31,32.58,32.58,79,38,12.64
133,ponta delgada,37.73,-25.67,61.23,61.23,86,100,11.63
134,rio gallegos,-51.62,-69.22,52.77,52.77,55,50,30.89
135,puchezh,56.98,43.17,26.53,26.53,82,92,22.08
136,proletariy,58.43,31.7,29.52,29.52,82,29,8.34
137,havoysund,71.0,24.66,21.99,21.99,74,97,22.79
138,vestmannaeyjar,63.44,-20.27,39.11,39.11,65,70,15.39
139,caravelas,-17.71,-39.25,77.02,77.02,83,100,10.02
140,beringovskiy,63.05,179.32,14.81,14.81,84,100,7.85
141,taltal,-25.4,-70.48,69.58,69.58,77,0,1.74
142,tara,56.89,74.37,-2.42,-2.42,98,99,7.31
143,dalmatovo,56.26,62.94,8.71,8.71,94,95,9.93
144,sao joao da barra,-21.64,-41.05,74.82,74.82,87,100,6.26
145,bengkulu,-3.8,102.27,74.98,74.98,89,88,2.44
146,tahoua,14.89,5.27,66.42,66.42,10,4,12.86
147,masallatah,32.62,14.0,58.01,58.01,38,89,3.18
148,nieuwpoort,51.12,2.77,37.96,39.0,95,86,5.01
149,te anau,-45.42,167.72,62.67,62.67,80,90,4.34
150,merritt island,28.54,-80.67,63.14,66.99,60,0,1.01
151,halifax,44.65,-63.57,30.36,32.0,78,99,1.01
152,hami,42.8,93.45,6.49,6.49,75,0,1.86
153,saint-philippe,-21.36,55.77,71.02,75.2,73,75,6.93
154,dakar,14.69,-17.44,72.79,72.79,70,46,26.64
155,keti bandar,24.14,67.45,69.13,69.13,86,0,9.89
156,mari-turek,56.79,49.62,19.72,19.72,96,99,4.45
157,constitucion,-35.33,-72.42,62.11,62.11,72,0,8.48
158,georgetown,5.41,100.34,76.44,78.01,88,46,3.0
159,sorland,67.67,12.69,35.13,35.13,79,100,29.84
160,lipari,38.47,14.95,58.84,60.01,20,100,8.68
161,ostrovnoy,68.05,39.51,0.63,0.63,99,65,8.19
162,rongcheng,30.63,117.85,38.5,38.5,98,100,4.05
163,severnyy,50.68,36.55,33.3,33.3,91,96,14.72
164,grand gaube,-20.01,57.66,75.36,77.0,83,75,11.41
165,kloulklubed,7.04,134.26,82.04,82.04,83,36,17.16
166,hambantota,6.12,81.12,78.12,78.12,73,62,20.98
167,nome,64.5,-165.41,-7.51,-7.51,71,0,7.85
168,margate,51.38,1.39,42.35,44.01,91,100,1.99
169,lebu,-37.62,-73.65,64.08,64.08,69,0,10.94
170,uzventis,55.78,22.65,33.8,33.8,95,40,9.17
171,luderitz,-26.65,15.16,65.77,65.77,90,0,16.64
172,saint-gilles,43.68,4.43,49.64,51.01,92,100,1.01
173,marawi,8.0,124.29,77.0,77.0,90,0,4.0
174,quelimane,-17.88,36.89,72.64,72.64,93,16,4.0
175,kutum,14.2,24.67,42.64,42.64,35,0,5.66
176,long beach,33.77,-118.19,67.66,75.99,28,1,5.82
177,xiongyue,40.18,122.12,18.86,18.86,67,0,7.05
178,rudraprayag,30.28,78.98,34.95,34.95,39,41,5.46
179,kaeo,-35.1,173.78,81.5,88.0,68,56,1.99
180,izvestkovyy,48.98,131.55,-5.33,-5.33,93,98,3.6
181,andros town,24.7,-77.77,74.32,74.32,64,49,8.55
182,sudak,44.85,34.97,35.01,35.01,71,1,8.05
183,tambura,5.6,27.47,68.27,68.27,26,29,5.39
184,kabanjahe,3.1,98.49,63.23,63.23,97,64,1.86
185,laguna,38.42,-121.42,59.27,63.0,82,1,3.36
186,semirom,31.42,51.57,10.67,10.67,82,77,3.44
187,calama,-22.47,-68.93,58.51,58.51,89,98,10.0
188,kingsport,36.55,-82.56,36.75,39.0,69,90,5.82
189,nokaneng,-19.67,22.27,77.52,77.52,43,52,6.22
190,vagay,57.94,69.02,-0.49,-0.49,96,83,5.77
191,medea,36.26,2.75,51.93,51.93,54,85,7.09
192,kysyl-syr,63.9,122.76,-34.51,-34.51,95,50,8.99
193,mahon,39.89,4.27,58.06,58.06,82,100,13.91
194,sobolevo,54.43,31.9,29.46,29.46,84,49,10.58
195,puerto quijarro,-17.78,-57.77,77.88,77.88,70,73,2.82
196,husavik,66.04,-17.34,30.2,30.2,92,90,9.17
197,upernavik,72.79,-56.15,-13.83,-13.83,95,78,6.85
198,hammerfest,70.66,23.68,16.77,16.77,89,97,11.27
199,belmonte,-15.86,-38.88,76.05,76.05,93,100,3.06
200,bethel,41.37,-73.41,44.15,51.01,96,100,1.99
201,talaya,61.38,152.75,-30.77,-30.77,94,100,8.23
202,buin,-33.73,-70.75,77.09,84.0,30,0,4.09
203,micheweni,-4.97,39.83,81.64,81.64,85,100,10.2
204,sibolga,1.74,98.78,71.78,71.78,95,95,2.84
205,dukat,62.55,155.55,-24.63,-24.63,98,100,6.13
206,kaitangata,-46.28,169.85,58.48,58.48,80,66,10.56
207,alghero,40.56,8.32,45.5,48.0,93,62,1.99
208,nampula,-15.12,39.27,69.49,69.49,98,94,3.65
209,karachev,53.12,34.99,29.57,29.57,90,77,13.33
210,sao filipe,14.9,-24.5,74.32,74.32,61,33,15.77
211,vila do maio,15.13,-23.22,74.17,74.17,74,66,19.13
212,talnakh,69.49,88.4,2.93,2.93,94,100,6.44
213,yar-sale,66.83,70.83,-4.4,-4.4,99,86,5.35
214,porto novo,6.5,2.6,76.32,76.32,57,45,1.34
215,flin flon,54.77,-101.86,19.9,19.9,97,100,5.86
216,bud,39.45,-86.18,32.27,34.0,86,90,16.11
217,doraha,30.82,76.02,45.77,45.77,76,0,3.06
218,conceicao do araguaia,-8.26,-49.26,76.89,76.89,93,100,3.44
219,ponta do sol,32.67,-17.1,51.6,57.0,57,16,5.01
220,la ronge,55.1,-105.28,22.82,22.82,96,100,2.82
221,lata,40.16,-8.33,43.2,52.0,89,0,0.83
222,grindavik,63.84,-22.43,35.6,35.6,80,40,5.82
223,srednekolymsk,67.45,153.68,-25.67,-25.67,96,100,4.18
224,bandarbeyla,9.49,50.81,78.55,78.55,82,84,20.42
225,anadyr,64.75,177.48,3.56,3.56,94,100,11.45
226,eirunepe,-6.66,-69.87,80.73,80.73,67,91,1.21
227,khasan,42.43,130.64,13.93,13.93,76,0,4.88
228,krasnoselkup,65.7,82.47,-6.43,-6.43,99,92,8.28
229,samarai,-10.62,150.67,87.44,87.44,58,67,2.62
230,ahipara,-35.17,173.17,88.0,88.0,68,59,1.99
231,mikkeli,61.67,27.25,18.0,18.0,99,27,1.01
232,tezu,27.92,96.17,47.53,47.53,59,23,3.15
233,saldanha,-33.01,17.94,64.4,64.4,77,29,3.36
234,pangnirtung,66.15,-65.71,-37.07,-37.07,99,100,1.57
235,cozumel,20.51,-86.95,78.35,79.0,81,12,7.0
236,berlevag,70.86,29.09,22.66,22.66,73,100,27.4
237,geraldton,-28.77,114.6,72.57,72.57,84,30,15.68
238,sitka,57.05,-135.33,41.65,41.65,93,100,20.49
239,portsmouth,50.8,-1.09,45.41,48.0,94,79,5.01
240,iranshahr,27.2,60.68,55.04,55.04,67,0,1.7
241,iwanai,42.97,140.51,16.12,16.12,90,100,3.49
242,provideniya,64.38,-173.3,-4.65,-4.65,68,0,3.67
243,pathalgaon,22.57,83.47,52.21,52.21,37,0,3.91
244,port blair,11.67,92.75,77.9,77.9,71,100,14.29
245,kungurtug,50.6,97.52,4.08,4.08,75,91,4.03
246,jalu,29.03,21.55,53.08,53.08,52,12,8.68
247,kavaratti,10.57,72.64,80.8,80.8,67,88,3.0
248,palmer,42.16,-72.33,40.69,45.0,93,90,8.05
249,manuk mangkaw,4.8,119.85,81.64,81.64,80,8,5.99
250,nhulunbuy,-12.23,136.77,85.03,85.03,80,22,18.19
251,tranas,58.04,14.98,40.51,41.0,88,100,10.0
252,buchanan,5.88,-10.05,76.21,76.21,94,0,0.67
253,lavrentiya,65.58,-171.0,-13.2,-13.2,76,0,2.26
254,kodinsk,58.69,99.18,21.24,21.24,81,100,14.05
255,port said,31.26,32.28,57.22,57.22,53,0,5.06
256,hwange,-18.37,26.5,67.89,67.89,86,1,0.89
257,vostok,46.49,135.88,-5.76,-5.76,85,0,5.14
258,pathein,16.78,94.73,65.48,65.48,69,96,5.95
259,saint george,37.1,-113.58,57.09,60.8,31,1,5.82
260,chernushka,56.51,56.08,16.74,16.74,98,100,6.11
261,saint anthony,45.02,-93.22,31.17,32.0,94,90,10.29
262,tual,-5.67,132.75,84.99,84.99,65,80,5.55
263,vardo,70.37,31.11,23.18,23.18,70,100,28.57
264,xapuri,-10.65,-68.5,75.92,75.92,95,56,2.21
265,kamina,-8.74,24.99,65.34,65.34,97,100,2.91
266,krasnogorsk,55.82,37.32,31.37,33.01,62,88,1.99
267,pringsewu,-5.36,104.97,73.58,73.58,89,73,1.81
268,chama,47.18,8.46,31.41,35.01,91,86,3.6
269,faya,18.39,42.45,45.57,45.57,68,0,6.78
270,mount isa,-20.73,139.5,75.04,75.04,88,100,13.76
271,aasiaat,68.71,-52.87,7.32,7.32,96,100,8.23
272,clyde river,70.47,-68.59,-20.38,-20.38,83,74,4.63
273,niteroi,-22.88,-43.1,75.2,75.2,81,0,3.22
274,hamilton,39.18,-84.53,34.18,36.0,91,100,5.01
275,mayo,38.89,-76.51,46.27,48.0,75,75,5.82
276,pisco,-13.7,-76.22,75.99,75.99,85,100,11.01
277,puerto baquerizo moreno,-0.9,-89.6,76.62,76.62,86,94,14.43
278,saint-paul,-21.01,55.27,71.04,75.2,83,75,2.24
279,saint-pierre,-21.34,55.48,71.04,75.2,73,75,6.93
280,cayeli,41.09,40.73,41.36,41.36,55,53,4.38
281,vallenar,-28.57,-70.76,65.68,65.68,76,22,6.11
282,nantucket,41.28,-70.1,44.76,46.0,100,90,21.92
283,severo-kurilsk,50.68,156.12,18.72,18.72,92,100,43.49
284,norman wells,65.28,-126.83,-21.68,-21.68,96,100,9.62
285,matamoros,25.53,-103.25,63.0,63.0,54,100,1.01
286,fairbanks,64.84,-147.72,-10.84,-5.01,63,100,5.01
287,victoria,22.29,114.16,59.61,62.01,95,100,15.48
288,chapais,49.78,-74.85,24.42,24.42,95,100,7.2
289,bulgan,48.81,103.53,7.27,7.27,60,74,3.62
290,svetlogorsk,52.63,29.73,31.73,31.73,94,46,10.29
291,pangody,65.85,74.49,-2.52,-2.52,98,83,3.24
292,kidal,18.44,1.41,73.31,73.31,9,97,9.95
293,tuatapere,-46.13,167.68,69.01,69.01,67,78,3.0
294,ulaangom,49.98,92.07,-6.56,-6.56,90,99,2.82
295,cayenne,4.93,-52.33,76.46,76.46,91,77,7.56
296,lavumisa,-27.31,31.89,75.2,75.2,88,29,2.24
297,nakhon phanom,17.41,104.78,64.6,64.6,97,87,4.07
298,mana,5.66,-53.78,74.41,74.41,95,73,2.82
299,gamba,-2.65,10.0,78.57,78.57,85,16,3.98
300,narsaq,60.92,-46.05,15.8,15.8,72,92,3.36
301,kununurra,-15.77,128.73,89.89,89.89,56,93,4.99
302,east london,-33.02,27.91,75.58,75.58,80,0,15.05
303,teguise,29.06,-13.56,60.69,60.69,71,0,4.7
304,mehamn,71.04,27.85,17.69,17.69,77,100,21.21
305,impfondo,1.64,18.07,67.53,67.53,28,85,1.36
306,carballo,43.21,-8.69,41.54,44.01,87,7,1.99
307,yatou,37.15,122.38,38.86,38.86,66,100,14.23
308,royan,45.63,-1.03,45.23,48.99,94,100,5.01
309,aztec,36.82,-107.99,43.95,46.99,49,1,16.11
310,aripuana,-9.17,-60.63,76.17,76.17,96,100,1.1
311,west bay,19.37,-81.42,79.0,79.0,55,22,5.01
312,juegang,32.32,121.19,47.05,50.0,68,100,17.56
313,avera,33.19,-82.53,47.88,51.01,66,2,1.01
314,ko samui,9.54,99.94,80.2,80.2,68,71,6.73
315,deputatskiy,69.3,139.9,-40.23,-40.23,100,55,0.76
316,lar,26.2,83.97,48.74,48.74,89,0,4.18
317,cidreira,-30.18,-50.21,74.77,74.77,73,60,18.75
318,tilichiki,60.47,166.1,25.5,25.5,84,100,18.05
319,menongue,-14.66,17.69,63.39,63.39,92,100,3.02
320,rosario do sul,-30.26,-54.91,78.21,78.21,40,0,4.41
321,yenotayevka,47.25,47.03,37.58,37.58,93,100,24.63
322,port hardy,50.7,-127.42,43.97,43.97,87,38,2.82
323,prince george,53.92,-122.75,37.99,37.99,76,100,1.99
324,cape coast,5.11,-1.25,81.19,81.19,72,83,6.8
325,hofn,64.25,-15.21,36.64,36.64,91,87,5.48
326,adeje,28.12,-16.73,56.53,63.0,87,75,6.93
327,constantine,36.37,6.61,46.18,46.18,59,33,3.98
328,ancud,-41.87,-73.82,58.95,58.95,95,100,7.4
329,poum,-20.23,164.02,79.9,79.9,80,89,19.82
330,aksu,41.12,80.26,22.17,22.17,75,59,1.97
331,paamiut,61.99,-49.67,18.07,18.07,64,93,21.72
332,mbandaka,0.05,18.26,70.65,70.65,38,100,2.84
333,santa isabel,-23.32,-46.22,73.44,79.0,79,61,1.92
334,pimentel,-6.84,-79.93,73.11,73.11,91,50,14.97
335,tuy hoa,13.08,109.3,75.56,75.56,82,99,3.38
336,kendari,-3.94,122.5,81.66,81.66,83,69,1.23
337,pedernales,18.04,-71.74,68.45,68.45,92,82,1.1
338,klaipeda,55.72,21.12,41.0,41.0,93,30,4.7
339,wajir,1.75,40.06,80.89,80.89,72,100,14.07
340,angatuba,-23.49,-48.41,67.86,67.86,80,1,3.15
341,halmeu,47.97,23.02,29.44,30.0,89,27,2.3
342,tatawin,32.93,10.45,59.34,59.34,34,100,4.09
343,gorom-gorom,14.44,-0.24,72.34,72.34,9,85,9.57
344,kedougou,12.56,-12.17,75.63,75.63,9,78,1.28
345,port-cartier,50.03,-66.87,17.01,17.01,78,80,0.78
346,sambava,-14.27,50.17,71.19,71.19,96,100,1.97
347,sokolo,14.73,-6.12,76.19,76.19,8,84,10.83
348,eldoret,0.52,35.27,57.51,57.51,94,100,5.61
349,bacolod,10.67,122.95,78.85,78.85,80,1,1.72
350,abu samrah,35.3,37.18,38.28,38.28,56,0,8.23
351,yaroslavskiy,44.17,132.21,2.34,2.34,75,0,1.28
352,yumen,40.28,97.2,13.01,13.01,69,0,2.66
353,mumford,5.26,-0.76,73.33,73.33,75,52,1.92
354,mugur-aksy,50.35,90.5,-0.96,-0.96,74,64,7.63
355,casablanca,33.59,-7.62,54.0,54.0,75,4,4.0
356,aranos,-24.13,19.12,73.11,73.11,15,0,7.52
357,kruisfontein,-34.0,24.73,66.63,66.63,86,27,22.3
358,bilma,18.69,12.92,59.41,59.41,16,0,7.85
359,tigil,57.8,158.67,27.34,27.34,80,100,21.39
360,port macquarie,-31.43,152.92,85.86,88.0,60,0,1.99
361,entre rios,-11.94,-38.08,76.89,76.89,89,98,5.79
362,rodnykove,45.04,33.95,33.8,33.8,82,0,7.65
363,lakes entrance,-37.88,147.98,71.94,73.0,68,0,1.01
364,smithers,54.78,-127.17,27.72,27.72,96,65,3.58
365,queanbeyan,-35.35,149.23,77.67,80.01,57,0,1.01
366,san lazaro,18.04,-88.66,70.84,70.84,80,31,5.19
367,aykhal,66.0,111.5,-20.31,-20.31,100,100,8.7
368,bima,-8.47,118.72,78.49,78.49,87,70,2.84
369,port hedland,-20.32,118.57,93.76,93.76,38,0,9.69
370,katsuura,35.13,140.3,38.32,39.99,92,100,5.01
371,gravdal,68.12,13.5,32.79,32.79,65,100,23.38
372,sioux lookout,50.1,-91.92,24.66,24.66,97,100,3.76
373,maxixe,-23.86,35.35,78.28,78.28,81,82,10.63
374,maniitsoq,65.42,-52.9,13.51,13.51,88,100,8.16
375,batticaloa,7.71,81.69,69.85,69.85,91,93,2.73
376,eureka,40.8,-124.16,56.8,59.0,93,100,3.42
377,clonakilty,51.62,-8.87,48.0,48.0,96,100,13.0
378,misratah,32.38,15.09,63.99,63.99,45,84,9.73
379,porto santo,33.07,-16.34,45.0,45.0,96,12,2.13
380,waingapu,-9.66,120.26,83.35,83.35,76,61,6.35
381,dayong,25.02,118.29,58.35,58.35,96,100,3.71
382,dryden,49.78,-92.75,24.49,24.49,94,100,3.24
383,gavrilovka vtoraya,52.88,42.77,26.1,26.1,88,79,17.43
384,pontes e lacerda,-15.23,-59.34,77.47,77.47,67,72,0.69
385,saraza,8.74,117.78,81.09,81.09,82,78,8.19
386,daru,-9.08,143.21,87.94,87.94,64,94,2.44
387,soure,-0.72,-48.52,78.37,78.37,91,99,5.93
388,belaya gora,68.53,146.42,-28.03,-28.03,96,100,3.58
389,visby,57.64,18.3,36.81,41.0,96,32,12.15
390,gornopravdinsk,60.05,69.9,-2.9,-2.9,99,97,6.04
391,puerto leguizamo,-0.19,-74.78,77.9,77.9,84,100,2.04
392,ishigaki,24.34,124.16,73.6,73.6,87,100,13.89
393,fonte boa,-2.5,-66.27,77.68,77.68,81,100,0.98
394,grand-santi,4.25,-54.38,73.4,73.4,97,70,4.45
395,bereda,43.27,-7.54,41.9,45.0,1,5,4.23
396,pitkyaranta,61.57,31.48,26.8,26.8,77,8,9.31
397,san quintin,30.48,-115.95,63.77,63.77,64,45,5.68
398,esmeraldas,-19.76,-44.31,66.79,66.79,99,78,2.71
399,winnemucca,40.97,-117.74,48.99,48.99,59,63,5.99
400,toowoomba,-27.55,151.97,75.65,78.01,76,83,4.0
401,bagdarin,54.43,113.6,-5.33,-5.33,90,0,1.5
402,sasovo,54.35,41.92,27.45,27.45,85,56,18.28
403,penzance,50.12,-5.54,47.88,48.99,91,78,15.01
404,high rock,26.62,-78.28,70.86,70.86,73,3,11.34
405,bonoua,5.27,-3.6,76.68,76.68,91,79,2.66
406,santa fe,-31.63,-60.7,83.37,83.37,27,0,2.3
407,dolores,-36.31,-57.68,67.98,67.98,55,7,8.3
408,xuddur,4.12,43.89,76.6,76.6,69,100,15.7
409,albanel,48.88,-72.45,20.7,20.7,96,100,3.51
410,lincoln,40.8,-96.67,29.71,30.99,89,83,4.0
411,tautira,-17.73,-149.15,87.01,87.01,66,75,13.0
412,nanortalik,60.14,-45.24,23.04,23.04,75,100,13.27
413,russell,32.35,-85.2,51.55,52.0,55,50,5.23
414,riyadh,24.69,46.72,43.54,43.54,33,0,14.41
415,quatre cocos,-20.21,57.76,75.52,77.0,83,75,11.41
416,tazovskiy,67.47,78.7,-5.24,-5.24,97,89,5.28
417,camargo,27.67,-105.17,66.96,66.96,30,100,8.95
418,vadakku valliyur,8.38,77.65,64.83,64.83,95,65,6.29
419,maceio,-9.67,-35.74,81.57,81.57,85,94,18.07
420,hervey bay,-25.3,152.85,86.0,86.0,61,43,8.01
421,carutapera,-1.2,-46.02,82.38,82.38,80,100,13.67
422,goundi,9.36,17.37,63.75,63.75,14,0,4.18
423,ugoofaaru,5.67,73.0,82.22,82.22,68,100,6.58
424,sao lourenco do oeste,-26.36,-52.85,67.69,67.69,82,3,2.8
425,guerrero negro,27.98,-114.06,67.24,67.24,53,0,10.31
426,omsukchan,62.53,155.8,-30.5,-30.5,100,100,9.44
427,severodvinsk,64.56,39.83,-0.92,-0.92,95,0,0.74
428,codrington,-38.27,141.97,62.37,62.37,89,76,14.85
429,paragominas,-2.97,-47.48,75.54,75.54,93,100,4.18
430,izhma,65.01,53.91,-10.73,-10.73,98,99,2.95
431,ibiapina,-3.92,-40.89,70.66,70.66,93,96,5.99
432,okhotsk,59.38,143.3,-19.48,-19.48,71,71,14.83
433,bubaque,11.28,-15.83,77.58,77.58,75,92,13.38
434,dunedin,-45.87,170.5,64.0,64.0,77,49,15.01
435,puerto rico,-26.8,-55.02,75.07,75.07,47,0,3.89
436,franklin,39.97,-83.02,33.46,35.01,100,90,10.29
437,guaruja,-23.99,-46.26,75.6,79.0,65,24,5.01
438,gilgit,35.92,74.31,9.28,9.28,90,95,3.15
439,fallon,39.47,-118.78,57.7,59.0,35,33,1.01
440,port hawkesbury,45.62,-61.35,24.04,30.0,85,2,1.99
441,san cristobal,7.77,-72.22,58.15,58.15,98,100,2.37
442,coolum beach,-26.53,153.1,79.48,82.0,80,34,7.27
443,linden,6.0,-58.3,74.98,74.98,83,100,4.81
444,obo,5.4,26.49,68.47,68.47,23,88,5.73
445,alcanena,39.46,-8.67,43.16,51.01,94,0,2.82
446,saint-denis,48.92,2.33,36.16,39.0,91,88,4.85
447,gweta,-20.18,25.23,73.49,73.49,59,2,6.31
448,kushmurun,52.45,64.63,18.84,18.84,86,100,22.46
449,pilar,-9.6,-35.96,78.71,78.71,84,85,8.43
450,kovdor,67.57,30.48,0.03,0.03,97,42,3.74
451,umm lajj,25.02,37.27,50.36,50.36,28,0,14.23
452,kiama,-34.68,150.87,81.37,84.99,22,21,10.0
453,pskov,57.81,28.35,29.17,29.17,86,22,6.49
454,truth or consequences,33.13,-107.25,62.01,62.01,26,17,4.0
455,charters towers,-20.1,146.27,80.46,80.46,73,100,6.38
456,asau,46.43,26.4,27.0,27.0,80,65,5.99
457,cordoba,-31.41,-64.18,88.5,95.0,18,9,1.99
458,kuopio,62.88,27.67,20.93,20.93,95,21,3.6
459,tukrah,32.53,20.58,53.33,53.33,61,55,12.93
460,yabelo,4.88,38.08,68.16,68.16,70,100,9.35
461,patea,-39.76,174.48,72.82,75.0,80,88,5.99
462,mecca,21.43,39.83,59.88,59.88,27,0,11.01
463,nelson bay,-32.72,152.15,84.04,88.0,82,38,3.2
464,biak,-0.91,122.88,81.3,81.3,78,27,3.8
465,manzhouli,49.6,117.43,-3.23,-3.23,86,100,3.4
466,olyka,50.72,25.81,31.41,31.41,86,100,9.55
467,derzhavinsk,51.1,66.32,15.51,15.51,91,99,25.59
468,plettenberg bay,-34.05,23.37,67.69,67.69,85,45,8.95
469,olinda,-8.01,-34.86,80.51,80.51,80,82,5.99
470,broken hill,-31.95,141.43,80.67,80.67,30,0,13.38
471,carauari,-4.88,-66.9,79.41,79.41,68,81,1.5
472,lazaro cardenas,17.96,-102.2,78.98,78.98,65,90,5.66
473,utete,-7.99,38.76,73.29,73.29,97,100,1.12
474,gushikawa,26.35,127.87,71.01,71.01,88,100,10.0
475,santa rosa,14.31,121.11,75.99,75.99,92,76,1.99
476,hingorja,27.21,68.42,64.98,64.98,37,0,7.76
477,rawson,-43.3,-65.1,76.14,76.14,37,0,14.97
478,kukes,42.08,20.42,37.67,37.67,88,100,5.41
479,inca,39.72,2.91,52.52,55.99,84,97,0.89
480,coquimbo,-29.95,-71.34,64.36,64.36,84,29,6.85
481,koson,39.04,65.58,32.9,32.9,89,98,5.21
482,san rafael,-34.62,-68.33,85.19,85.19,21,0,8.16
483,aklavik,68.22,-135.01,-16.04,-16.04,88,100,16.6
484,tanout,14.97,8.89,61.79,61.79,13,0,14.45
485,qaqortoq,60.72,-46.03,15.8,15.8,72,99,3.36
486,udachnyy,66.42,112.4,-24.09,-24.09,99,85,8.28
487,kawalu,-7.38,108.21,72.93,72.93,86,15,1.7
488,esso,55.93,158.7,18.57,18.57,94,100,2.84
489,cervo,43.67,-7.41,40.17,45.0,1,5,4.23
490,kalmunai,7.42,81.82,79.75,79.75,70,75,14.34
491,vammala,61.33,22.9,28.96,30.0,87,96,7.94
492,muros,42.78,-9.06,42.8,51.01,93,37,3.71
493,carbonia,39.17,8.52,51.01,51.01,82,0,8.19
494,fort nelson,58.81,-122.7,13.15,13.15,96,84,3.09
495,mayumba,-3.43,10.66,83.28,83.28,79,96,7.16
496,akola,20.73,77.0,65.59,65.59,45,11,3.53
497,paracuru,-3.41,-39.03,83.26,86.0,76,99,14.0
498,hurghada,27.26,33.81,61.65,61.65,55,0,8.12
499,cururupu,-1.83,-44.87,75.88,75.88,97,100,3.44
500,luorong,24.41,109.61,42.57,42.57,81,73,9.73
501,daoukro,7.06,-3.96,69.01,69.01,36,23,2.24
502,pacific grove,36.62,-121.92,61.34,66.99,87,56,3.0
503,butka,56.72,63.79,6.17,6.17,95,100,9.26
504,benjamin constant,-4.38,-70.03,77.77,77.77,88,97,1.36
505,moree,-29.47,149.85,84.63,84.63,55,48,12.71
506,comodoro rivadavia,-45.87,-67.5,74.55,74.55,32,4,27.94
507,shawnee,39.05,-95.77,32.52,35.01,80,90,4.7
508,zhigansk,66.77,123.37,-31.56,-31.56,89,63,14.25
509,hayrabolu,41.21,27.11,42.01,42.01,83,82,7.63
510,itanhem,-17.17,-40.33,69.78,69.78,94,100,4.74
511,sinnamary,5.38,-52.95,79.77,79.77,84,59,20.58
512,chengde,40.97,117.94,13.62,13.62,77,0,1.92
513,angoram,-4.06,144.07,83.89,83.89,80,79,3.06
514,bathsheba,13.22,-59.52,77.88,77.88,79,95,9.31
515,itarema,-2.92,-39.92,78.49,78.49,88,86,6.58
516,lianran,24.92,102.48,35.11,35.11,89,88,1.79
517,naze,28.37,129.48,70.14,70.14,84,100,7.63
518,swan river,52.11,-101.27,26.6,26.6,96,100,4.63
519,abeche,13.83,20.83,60.69,60.69,18,0,25.75
520,mahwa,27.05,76.93,50.67,50.67,52,0,1.19
521,gorontalo,0.54,123.06,79.29,79.29,83,9,2.89
522,shaoguan,24.8,113.58,45.45,45.45,92,100,3.87
523,freeport,40.66,-73.58,47.28,52.0,81,90,12.75
524,san jose,37.34,-121.89,63.48,68.0,68,75,3.38
525,narino,5.61,-75.18,66.0,66.0,76,90,1.01
526,vesele,47.01,34.91,32.47,32.47,86,10,9.51
527,aktash,50.3,87.73,3.2,3.2,82,79,8.32
528,puerto carreno,6.19,-67.49,85.28,85.28,42,100,7.58
529,kuusamo,65.97,29.18,9.21,9.21,96,68,4.05
530,maldonado,-34.67,-54.92,63.79,63.79,61,0,5.1
531,san jeronimo,-11.95,-75.28,47.66,47.66,82,93,1.81
532,ternate,0.8,127.4,81.54,81.54,76,27,2.15
533,yantal,56.85,105.25,17.11,17.11,88,97,8.28
534,praia da vitoria,38.73,-27.07,58.77,58.77,63,100,5.23
535,wanning,18.8,110.4,66.27,66.27,92,100,10.54
536,mount gambier,-37.83,140.77,63.36,63.36,75,77,7.81
537,shimoda,34.67,138.95,35.89,39.0,92,100,1.01
